{
    "city": "Odense",
    "totalToilets": 6,
    "toilets": [
        {
            "id": "odense-1",
            "lat": 55.408365,
            "lng": 10.378135,
            "address": "Østersøgade 8T",
            "type": "Toilet",
            "opening_hours": "Hele dagen",
            "price": "Gratis",
            "postal_code": "5000",
        },
        {
            "id": "odense-2",
            "lat": 55.407162,
            "lng": 10.382829,
            "address": "Gamle Havnekaj 1",
            "type": "Toilet",
            "opening_hours": "Hele dagen",
            "price": "Gratis",
            "postal_code": "5000",
        },
        {
            "id": "odense-3",
            "lat": 55.406912,
            "lng": 10.383065,
            "address": "Gamle Havnekaj 1",
            "type": "Handicap",
            "opening_hours": "Hele dagen",
            "price": "Gratis",
            "postal_code": "5000",
        },
        {
            "id": "odense-4",
            "lat": 55.403351,
            "lng": 10.387303,
            "address": "Dannebrogsgade 5",
            "type": "Toilet",
            "opening_hours": "Hele dagen",
            "price": "5",
            "postal_code": "5000",
        },
        {
            "id": "odense-5",
            "lat": 55.402008,
            "lng": 10.387170,
            "address": "Dannebrogsgade 6B",
            "type": "Toilet",
            "opening_hours": "5:00-1:15",
            "price": "2",
            "postal_code": "5000",
        },
        {
            "id": "odense-6",
            "lat": 55.399277,
            "lng": 10.388873,
            "address": "Nørregade 49B",
            "type": "Pissoir",
            "opening_hours": "Hele dagen",
            "price": "Gratis",
            "postal_code": "5000",
        }
    ]
}
